{"fullgameschedule":{"lastUpdatedOn":"20181225 5:27:39 AM","gameentry":[{"id":"45944","date":"20180906","time":"8:20PM","awayTeam":{"ID":"68","City":"Atlanta","Name":"Falcons","Abbreviation":"ATL"},"homeTeam":{"ID":"54","City":"Philadelphia","Name":"Eagles","Abbreviation":"PHI"},"location":"Lincoln Financial Field"},{"id":"45945","date":"20180909","time":"1:00PM","awayTeam":{"ID":"48","City":"Buffalo","Name":"Bills","Abbreviation":"BUF"},"homeTeam":{"ID":"56","City":"Baltimore","Name":"Ravens","Abbreviation":"BAL"},"location":"M&T Bank Stadium"},{"id":"45946","date":"20180909","time":"1:00PM","awayTeam":{"ID":"57","City":"Cincinnati","Name":"Bengals","Abbreviation":"CIN"},"homeTeam":{"ID":"65","City":"Indianapolis","Name":"Colts","Abbreviation":"IND"},"location":"Lucas Oil Stadium"},{"id":"45947","date":"20180909","time":"1:00PM","awayTeam":{"ID":"64","City":"Houston","Name":"Texans","Abbreviation":"HOU"},"homeTeam":{"ID":"50","City":"New England","Name":"Patriots","Abbreviation":"NE"},"location":"Gillette Stadium"},{"id":"45948","date":"20180909","time":"1:00PM","awayTeam":{"ID":"66","City":"Jacksonville","Name":"Jaguars","Abbreviation":"JAX"},"homeTeam":{"ID":"53","City":"New York","Name":"Giants","Abbreviation":"NYG"},"location":"MetLife Stadium"},{"id":"45949","date":"20180909","time":"1:00PM","awayTeam":{"ID":"59","City":"Pittsburgh","Name":"Steelers","Abbreviation":"PIT"},"homeTeam":{"ID":"58","City":"Cleveland","Name":"Browns","Abbreviation":"CLE"},"location":"FirstEnergy Stadium"},{"id":"45950","date":"20180909","time":"1:00PM","awayTeam":{"ID":"78","City":"San Francisco","Name":"49ers","Abbreviation":"SF"},"homeTeam":{"ID":"63","City":"Minnesota","Name":"Vikings","Abbreviation":"MIN"},"location":"US Bank Stadium"},{"id":"45951","date":"20180909","time":"1:00PM","awayTeam":{"ID":"71","City":"Tampa Bay","Name":"Buccaneers","Abbreviation":"TB"},"homeTeam":{"ID":"70","City":"New Orleans","Name":"Saints","Abbreviation":"NO"},"location":"MercedesBenz Stadium"},{"id":"45952","date":"20180909","time":"1:00PM","awayTeam":{"ID":"67","City":"Tennessee","Name":"Titans","Abbreviation":"TEN"},"homeTeam":{"ID":"49","City":"Miami","Name":"Dolphins","Abbreviation":"MIA"},"location":"Hard Rock Stadium"},{"id":"45953","date":"20180909","time":"4:05PM","awayTeam":{"ID":"73","City":"Kansas City","Name":"Chiefs","Abbreviation":"KC"},"homeTeam":{"ID":"75","City":"Los Angeles","Name":"Chargers","Abbreviation":"LAC"},"location":"StubHub Center"},{"id":"45954","date":"20180909","time":"4:25PM","awayTeam":{"ID":"52","City":"Dallas","Name":"Cowboys","Abbreviation":"DAL"},"homeTeam":{"ID":"69","City":"Carolina","Name":"Panthers","Abbreviation":"CAR"},"location":"Bank of America Stadium"},{"id":"45955","date":"20180909","time":"4:25PM","awayTeam":{"ID":"79","City":"Seattle","Name":"Seahawks","Abbreviation":"SEA"},"homeTeam":{"ID":"72","City":"Denver","Name":"Broncos","Abbreviation":"DEN"},"location":"Sports Authority Field at Mile High"},{"id":"45956","date":"20180909","time":"4:25PM","awayTeam":{"ID":"55","City":"Washington","Name":"Redskins","Abbreviation":"WAS"},"homeTeam":{"ID":"76","City":"Arizona","Name":"Cardinals","Abbreviation":"ARI"},"location":"University of Phoenix Stadium"},{"id":"45957","date":"20180909","time":"8:20PM","awayTeam":{"ID":"60","City":"Chicago","Name":"Bears","Abbreviation":"CHI"},"homeTeam":{"ID":"62","City":"Green Bay","Name":"Packers","Abbreviation":"GB"},"location":"Lambeau Field"},{"id":"45958","date":"20180910","time":"7:10PM","awayTeam":{"ID":"51","City":"New York","Name":"Jets","Abbreviation":"NYJ"},"homeTeam":{"ID":"61","City":"Detroit","Name":"Lions","Abbreviation":"DET"},"location":"Ford Field"},{"id":"45959","date":"20180910","time":"10:20PM","awayTeam":{"ID":"77","City":"Los Angeles","Name":"Rams","Abbreviation":"LA"},"homeTeam":{"ID":"74","City":"Oakland","Name":"Raiders","Abbreviation":"OAK"},"location":"OaklandAlameda County Coliseum"},{"id":"45960","date":"20180913","time":"8:20PM","awayTeam":{"ID":"56","City":"Baltimore","Name":"Ravens","Abbreviation":"BAL"},"homeTeam":{"ID":"57","City":"Cincinnati","Name":"Bengals","Abbreviation":"CIN"},"location":"Paul Brown Stadium"},{"id":"45961","date":"20180916","time":"1:00PM","awayTeam":{"ID":"69","City":"Carolina","Name":"Panthers","Abbreviation":"CAR"},"homeTeam":{"ID":"68","City":"Atlanta","Name":"Falcons","Abbreviation":"ATL"},"location":"Georgia Dome"},{"id":"45962","date":"20180916","time":"1:00PM","awayTeam":{"ID":"58","City":"Cleveland","Name":"Browns","Abbreviation":"CLE"},"homeTeam":{"ID":"70","City":"New Orleans","Name":"Saints","Abbreviation":"NO"},"location":"MercedesBenz Stadium"},{"id":"45963","date":"20180916","time":"1:00PM","awayTeam":{"ID":"64","City":"Houston","Name":"Texans","Abbreviation":"HOU"},"homeTeam":{"ID":"67","City":"Tennessee","Name":"Titans","Abbreviation":"TEN"},"location":"Nissan Stadium"},{"id":"45964","date":"20180916","time":"1:00PM","awayTeam":{"ID":"65","City":"Indianapolis","Name":"Colts","Abbreviation":"IND"},"homeTeam":{"ID":"55","City":"Washington","Name":"Redskins","Abbreviation":"WAS"},"location":"FedEx Field"},{"id":"45965","date":"20180916","time":"1:00PM","awayTeam":{"ID":"73","City":"Kansas City","Name":"Chiefs","Abbreviation":"KC"},"homeTeam":{"ID":"59","City":"Pittsburgh","Name":"Steelers","Abbreviation":"PIT"},"location":"Heinz Field"},{"id":"45966","date":"20180916","time":"1:00PM","awayTeam":{"ID":"75","City":"Los Angeles","Name":"Chargers","Abbreviation":"LAC"},"homeTeam":{"ID":"48","City":"Buffalo","Name":"Bills","Abbreviation":"BUF"},"location":"New Era Field"},{"id":"45967","date":"20180916","time":"1:00PM","awayTeam":{"ID":"49","City":"Miami","Name":"Dolphins","Abbreviation":"MIA"},"homeTeam":{"ID":"51","City":"New York","Name":"Jets","Abbreviation":"NYJ"},"location":"MetLife Stadium"},{"id":"45968","date":"20180916","time":"1:00PM","awayTeam":{"ID":"63","City":"Minnesota","Name":"Vikings","Abbreviation":"MIN"},"homeTeam":{"ID":"62","City":"Green Bay","Name":"Packers","Abbreviation":"GB"},"location":"Lambeau Field"},{"id":"45969","date":"20180916","time":"1:00PM","awayTeam":{"ID":"54","City":"Philadelphia","Name":"Eagles","Abbreviation":"PHI"},"homeTeam":{"ID":"71","City":"Tampa Bay","Name":"Buccaneers","Abbreviation":"TB"},"location":"Raymond James Stadium"},{"id":"45970","date":"20180916","time":"4:05PM","awayTeam":{"ID":"76","City":"Arizona","Name":"Cardinals","Abbreviation":"ARI"},"homeTeam":{"ID":"77","City":"Los Angeles","Name":"Rams","Abbreviation":"LA"},"location":"Los Angeles Memorial Coliseum"},{"id":"45971","date":"20180916","time":"4:05PM","awayTeam":{"ID":"61","City":"Detroit","Name":"Lions","Abbreviation":"DET"},"homeTeam":{"ID":"78","City":"San Francisco","Name":"49ers","Abbreviation":"SF"},"location":"Levi's Stadium"},{"id":"45972","date":"20180916","time":"4:25PM","awayTeam":{"ID":"74","City":"Oakland","Name":"Raiders","Abbreviation":"OAK"},"homeTeam":{"ID":"72","City":"Denver","Name":"Broncos","Abbreviation":"DEN"},"location":"Sports Authority Field at Mile High"},{"id":"45973","date":"20180916","time":"4:25PM","awayTeam":{"ID":"50","City":"New England","Name":"Patriots","Abbreviation":"NE"},"homeTeam":{"ID":"66","City":"Jacksonville","Name":"Jaguars","Abbreviation":"JAX"},"location":"EverBank Field"},{"id":"45974","date":"20180916","time":"8:20PM","awayTeam":{"ID":"53","City":"New York","Name":"Giants","Abbreviation":"NYG"},"homeTeam":{"ID":"52","City":"Dallas","Name":"Cowboys","Abbreviation":"DAL"},"location":"AT&T Stadium"},{"id":"45975","date":"20180917","time":"8:15PM","awayTeam":{"ID":"79","City":"Seattle","Name":"Seahawks","Abbreviation":"SEA"},"homeTeam":{"ID":"60","City":"Chicago","Name":"Bears","Abbreviation":"CHI"},"location":"Soldier Field"},{"id":"45976","date":"20180920","time":"8:20PM","awayTeam":{"ID":"51","City":"New York","Name":"Jets","Abbreviation":"NYJ"},"homeTeam":{"ID":"58","City":"Cleveland","Name":"Browns","Abbreviation":"CLE"},"location":"FirstEnergy Stadium"},{"id":"45977","date":"20180923","time":"1:00PM","awayTeam":{"ID":"48","City":"Buffalo","Name":"Bills","Abbreviation":"BUF"},"homeTeam":{"ID":"63","City":"Minnesota","Name":"Vikings","Abbreviation":"MIN"},"location":"US Bank Stadium"},{"id":"45978","date":"20180923","time":"1:00PM","awayTeam":{"ID":"57","City":"Cincinnati","Name":"Bengals","Abbreviation":"CIN"},"homeTeam":{"ID":"69","City":"Carolina","Name":"Panthers","Abbreviation":"CAR"},"location":"Bank of America Stadium"},{"id":"45979","date":"20180923","time":"1:00PM","awayTeam":{"ID":"72","City":"Denver","Name":"Broncos","Abbreviation":"DEN"},"homeTeam":{"ID":"56","City":"Baltimore","Name":"Ravens","Abbreviation":"BAL"},"location":"M&T Bank Stadium"},{"id":"45980","date":"20180923","time":"1:00PM","awayTeam":{"ID":"62","City":"Green Bay","Name":"Packers","Abbreviation":"GB"},"homeTeam":{"ID":"55","City":"Washington","Name":"Redskins","Abbreviation":"WAS"},"location":"FedEx Field"},{"id":"45981","date":"20180923","time":"1:00PM","awayTeam":{"ID":"65","City":"Indianapolis","Name":"Colts","Abbreviation":"IND"},"homeTeam":{"ID":"54","City":"Philadelphia","Name":"Eagles","Abbreviation":"PHI"},"location":"Lincoln Financial Field"},{"id":"45982","date":"20180923","time":"1:00PM","awayTeam":{"ID":"70","City":"New Orleans","Name":"Saints","Abbreviation":"NO"},"homeTeam":{"ID":"68","City":"Atlanta","Name":"Falcons","Abbreviation":"ATL"},"location":"Georgia Dome"},{"id":"45983","date":"20180923","time":"1:00PM","awayTeam":{"ID":"53","City":"New York","Name":"Giants","Abbreviation":"NYG"},"homeTeam":{"ID":"64","City":"Houston","Name":"Texans","Abbreviation":"HOU"},"location":"NRG Stadium"},{"id":"45984","date":"20180923","time":"1:00PM","awayTeam":{"ID":"74","City":"Oakland","Name":"Raiders","Abbreviation":"OAK"},"homeTeam":{"ID":"49","City":"Miami","Name":"Dolphins","Abbreviation":"MIA"},"location":"Hard Rock Stadium"},{"id":"45985","date":"20180923","time":"1:00PM","awayTeam":{"ID":"78","City":"San Francisco","Name":"49ers","Abbreviation":"SF"},"homeTeam":{"ID":"73","City":"Kansas City","Name":"Chiefs","Abbreviation":"KC"},"location":"Arrowhead Stadium"},{"id":"45986","date":"20180923","time":"1:00PM","awayTeam":{"ID":"67","City":"Tennessee","Name":"Titans","Abbreviation":"TEN"},"homeTeam":{"ID":"66","City":"Jacksonville","Name":"Jaguars","Abbreviation":"JAX"},"location":"EverBank Field"},{"id":"45987","date":"20180923","time":"4:05PM","awayTeam":{"ID":"75","City":"Los Angeles","Name":"Chargers","Abbreviation":"LAC"},"homeTeam":{"ID":"77","City":"Los Angeles","Name":"Rams","Abbreviation":"LA"},"location":"Los Angeles Memorial Coliseum"},{"id":"45988","date":"20180923","time":"4:25PM","awayTeam":{"ID":"60","City":"Chicago","Name":"Bears","Abbreviation":"CHI"},"homeTeam":{"ID":"76","City":"Arizona","Name":"Cardinals","Abbreviation":"ARI"},"location":"University of Phoenix Stadium"},{"id":"45989","date":"20180923","time":"4:25PM","awayTeam":{"ID":"52","City":"Dallas","Name":"Cowboys","Abbreviation":"DAL"},"homeTeam":{"ID":"79","City":"Seattle","Name":"Seahawks","Abbreviation":"SEA"},"location":"CenturyLink Field"},{"id":"45990","date":"20180923","time":"8:20PM","awayTeam":{"ID":"50","City":"New England","Name":"Patriots","Abbreviation":"NE"},"homeTeam":{"ID":"61","City":"Detroit","Name":"Lions","Abbreviation":"DET"},"location":"Ford Field"},{"id":"45991","date":"20180924","time":"8:15PM","awayTeam":{"ID":"59","City":"Pittsburgh","Name":"Steelers","Abbreviation":"PIT"},"homeTeam":{"ID":"71","City":"Tampa Bay","Name":"Buccaneers","Abbreviation":"TB"},"location":"Raymond James Stadium"},{"id":"45992","date":"20180927","time":"8:20PM","awayTeam":{"ID":"63","City":"Minnesota","Name":"Vikings","Abbreviation":"MIN"},"homeTeam":{"ID":"77","City":"Los Angeles","Name":"Rams","Abbreviation":"LA"},"location":"Los Angeles Memorial Coliseum"},{"id":"45993","date":"20180930","time":"1:00PM","awayTeam":{"ID":"48","City":"Buffalo","Name":"Bills","Abbreviation":"BUF"},"homeTeam":{"ID":"62","City":"Green Bay","Name":"Packers","Abbreviation":"GB"},"location":"Lambeau Field"},{"id":"45994","date":"20180930","time":"1:00PM","awayTeam":{"ID":"57","City":"Cincinnati","Name":"Bengals","Abbreviation":"CIN"},"homeTeam":{"ID":"68","City":"Atlanta","Name":"Falcons","Abbreviation":"ATL"},"location":"Georgia Dome"},{"id":"45995","date":"20180930","time":"1:00PM","awayTeam":{"ID":"61","City":"Detroit","Name":"Lions","Abbreviation":"DET"},"homeTeam":{"ID":"52","City":"Dallas","Name":"Cowboys","Abbreviation":"DAL"},"location":"AT&T Stadium"},{"id":"45996","date":"20180930","time":"1:00PM","awayTeam":{"ID":"64","City":"Houston","Name":"Texans","Abbreviation":"HOU"},"homeTeam":{"ID":"65","City":"Indianapolis","Name":"Colts","Abbreviation":"IND"},"location":"Lucas Oil Stadium"},{"id":"45997","date":"20180930","time":"1:00PM","awayTeam":{"ID":"49","City":"Miami","Name":"Dolphins","Abbreviation":"MIA"},"homeTeam":{"ID":"50","City":"New England","Name":"Patriots","Abbreviation":"NE"},"location":"Gillette Stadium"},{"id":"45998","date":"20180930","time":"1:00PM","awayTeam":{"ID":"51","City":"New York","Name":"Jets","Abbreviation":"NYJ"},"homeTeam":{"ID":"66","City":"Jacksonville","Name":"Jaguars","Abbreviation":"JAX"},"location":"EverBank Field"},{"id":"45999","date":"20180930","time":"1:00PM","awayTeam":{"ID":"54","City":"Philadelphia","Name":"Eagles","Abbreviation":"PHI"},"homeTeam":{"ID":"67","City":"Tennessee","Name":"Titans","Abbreviation":"TEN"},"location":"Nissan Stadium"},{"id":"46000","date":"20180930","time":"1:00PM","awayTeam":{"ID":"71","City":"Tampa Bay","Name":"Buccaneers","Abbreviation":"TB"},"homeTeam":{"ID":"60","City":"Chicago","Name":"Bears","Abbreviation":"CHI"},"location":"Soldier Field"},{"id":"46001","date":"20180930","time":"4:05PM","awayTeam":{"ID":"58","City":"Cleveland","Name":"Browns","Abbreviation":"CLE"},"homeTeam":{"ID":"74","City":"Oakland","Name":"Raiders","Abbreviation":"OAK"},"location":"OaklandAlameda County Coliseum"},{"id":"46002","date":"20180930","time":"4:05PM","awayTeam":{"ID":"79","City":"Seattle","Name":"Seahawks","Abbreviation":"SEA"},"homeTeam":{"ID":"76","City":"Arizona","Name":"Cardinals","Abbreviation":"ARI"},"location":"University of Phoenix Stadium"},{"id":"46003","date":"20180930","time":"4:25PM","awayTeam":{"ID":"70","City":"New Orleans","Name":"Saints","Abbreviation":"NO"},"homeTeam":{"ID":"53","City":"New York","Name":"Giants","Abbreviation":"NYG"},"location":"MetLife Stadium"},{"id":"46004","date":"20180930","time":"4:25PM","awayTeam":{"ID":"78","City":"San Francisco","Name":"49ers","Abbreviation":"SF"},"homeTeam":{"ID":"75","City":"Los Angeles","Name":"Chargers","Abbreviation":"LAC"},"location":"StubHub Center"},{"id":"46005","date":"20180930","time":"8:20PM","awayTeam":{"ID":"56","City":"Baltimore","Name":"Ravens","Abbreviation":"BAL"},"homeTeam":{"ID":"59","City":"Pittsburgh","Name":"Steelers","Abbreviation":"PIT"},"location":"Heinz Field"},{"id":"46006","date":"20181001","time":"8:15PM","awayTeam":{"ID":"73","City":"Kansas City","Name":"Chiefs","Abbreviation":"KC"},"homeTeam":{"ID":"72","City":"Denver","Name":"Broncos","Abbreviation":"DEN"},"location":"Sports Authority Field at Mile High"},{"id":"46007","date":"20181004","time":"8:20PM","awayTeam":{"ID":"65","City":"Indianapolis","Name":"Colts","Abbreviation":"IND"},"homeTeam":{"ID":"50","City":"New England","Name":"Patriots","Abbreviation":"NE"},"location":"Gillette Stadium"},{"id":"46008","date":"20181007","time":"1:00PM","awayTeam":{"ID":"68","City":"Atlanta","Name":"Falcons","Abbreviation":"ATL"},"homeTeam":{"ID":"59","City":"Pittsburgh","Name":"Steelers","Abbreviation":"PIT"},"location":"Heinz Field"},{"id":"46009","date":"20181007","time":"1:00PM","awayTeam":{"ID":"56","City":"Baltimore","Name":"Ravens","Abbreviation":"BAL"},"homeTeam":{"ID":"58","City":"Cleveland","Name":"Browns","Abbreviation":"CLE"},"location":"FirstEnergy Stadium"},{"id":"46010","date":"20181007","time":"1:00PM","awayTeam":{"ID":"72","City":"Denver","Name":"Broncos","Abbreviation":"DEN"},"homeTeam":{"ID":"51","City":"New York","Name":"Jets","Abbreviation":"NYJ"},"location":"MetLife Stadium"},{"id":"46011","date":"20181007","time":"1:00PM","awayTeam":{"ID":"62","City":"Green Bay","Name":"Packers","Abbreviation":"GB"},"homeTeam":{"ID":"61","City":"Detroit","Name":"Lions","Abbreviation":"DET"},"location":"Ford Field"},{"id":"46012","date":"20181007","time":"1:00PM","awayTeam":{"ID":"66","City":"Jacksonville","Name":"Jaguars","Abbreviation":"JAX"},"homeTeam":{"ID":"73","City":"Kansas City","Name":"Chiefs","Abbreviation":"KC"},"location":"Arrowhead Stadium"},{"id":"46013","date":"20181007","time":"1:00PM","awayTeam":{"ID":"49","City":"Miami","Name":"Dolphins","Abbreviation":"MIA"},"homeTeam":{"ID":"57","City":"Cincinnati","Name":"Bengals","Abbreviation":"CIN"},"location":"Paul Brown Stadium"},{"id":"46014","date":"20181007","time":"1:00PM","awayTeam":{"ID":"53","City":"New York","Name":"Giants","Abbreviation":"NYG"},"homeTeam":{"ID":"69","City":"Carolina","Name":"Panthers","Abbreviation":"CAR"},"location":"Bank of America Stadium"},{"id":"46015","date":"20181007","time":"1:00PM","awayTeam":{"ID":"67","City":"Tennessee","Name":"Titans","Abbreviation":"TEN"},"homeTeam":{"ID":"48","City":"Buffalo","Name":"Bills","Abbreviation":"BUF"},"location":"New Era Field"},{"id":"46016","date":"20181007","time":"4:05PM","awayTeam":{"ID":"74","City":"Oakland","Name":"Raiders","Abbreviation":"OAK"},"homeTeam":{"ID":"75","City":"Los Angeles","Name":"Chargers","Abbreviation":"LAC"},"location":"StubHub Center"},{"id":"46017","date":"20181007","time":"4:25PM","awayTeam":{"ID":"76","City":"Arizona","Name":"Cardinals","Abbreviation":"ARI"},"homeTeam":{"ID":"78","City":"San Francisco","Name":"49ers","Abbreviation":"SF"},"location":"Levi's Stadium"},{"id":"46018","date":"20181007","time":"4:25PM","awayTeam":{"ID":"77","City":"Los Angeles","Name":"Rams","Abbreviation":"LA"},"homeTeam":{"ID":"79","City":"Seattle","Name":"Seahawks","Abbreviation":"SEA"},"location":"CenturyLink Field"},{"id":"46019","date":"20181007","time":"4:25PM","awayTeam":{"ID":"63","City":"Minnesota","Name":"Vikings","Abbreviation":"MIN"},"homeTeam":{"ID":"54","City":"Philadelphia","Name":"Eagles","Abbreviation":"PHI"},"location":"Lincoln Financial Field"},{"id":"46020","date":"20181007","time":"8:20PM","awayTeam":{"ID":"52","City":"Dallas","Name":"Cowboys","Abbreviation":"DAL"},"homeTeam":{"ID":"64","City":"Houston","Name":"Texans","Abbreviation":"HOU"},"location":"NRG Stadium"},{"id":"46021","date":"20181008","time":"8:15PM","awayTeam":{"ID":"55","City":"Washington","Name":"Redskins","Abbreviation":"WAS"},"homeTeam":{"ID":"70","City":"New Orleans","Name":"Saints","Abbreviation":"NO"},"location":"MercedesBenz Stadium"},{"id":"46022","date":"20181011","time":"8:20PM","awayTeam":{"ID":"54","City":"Philadelphia","Name":"Eagles","Abbreviation":"PHI"},"homeTeam":{"ID":"53","City":"New York","Name":"Giants","Abbreviation":"NYG"},"location":"MetLife Stadium"},{"id":"46023","date":"20181014","time":"1:00PM","awayTeam":{"ID":"76","City":"Arizona","Name":"Cardinals","Abbreviation":"ARI"},"homeTeam":{"ID":"63","City":"Minnesota","Name":"Vikings","Abbreviation":"MIN"},"location":"US Bank Stadium"},{"id":"46024","date":"20181014","time":"1:00PM","awayTeam":{"ID":"69","City":"Carolina","Name":"Panthers","Abbreviation":"CAR"},"homeTeam":{"ID":"55","City":"Washington","Name":"Redskins","Abbreviation":"WAS"},"location":"FedEx Field"},{"id":"46025","date":"20181014","time":"1:00PM","awayTeam":{"ID":"60","City":"Chicago","Name":"Bears","Abbreviation":"CHI"},"homeTeam":{"ID":"49","City":"Miami","Name":"Dolphins","Abbreviation":"MIA"},"location":"Hard Rock Stadium"},{"id":"46026","date":"20181014","time":"1:00PM","awayTeam":{"ID":"65","City":"Indianapolis","Name":"Colts","Abbreviation":"IND"},"homeTeam":{"ID":"51","City":"New York","Name":"Jets","Abbreviation":"NYJ"},"location":"MetLife Stadium"},{"id":"46027","date":"20181014","time":"1:00PM","awayTeam":{"ID":"79","City":"Seattle","Name":"Seahawks","Abbreviation":"SEA"},"homeTeam":{"ID":"74","City":"Oakland","Name":"Raiders","Abbreviation":"OAK"},"location":"OaklandAlameda County Coliseum"},{"id":"46028","date":"20181014","time":"1:00PM","awayTeam":{"ID":"48","City":"Buffalo","Name":"Bills","Abbreviation":"BUF"},"homeTeam":{"ID":"64","City":"Houston","Name":"Texans","Abbreviation":"HOU"},"location":"NRG Stadium"},{"id":"46029","date":"20181014","time":"1:00PM","awayTeam":{"ID":"75","City":"Los Angeles","Name":"Chargers","Abbreviation":"LAC"},"homeTeam":{"ID":"58","City":"Cleveland","Name":"Browns","Abbreviation":"CLE"},"location":"FirstEnergy Stadium"},{"id":"46030","date":"20181014","time":"1:00PM","awayTeam":{"ID":"59","City":"Pittsburgh","Name":"Steelers","Abbreviation":"PIT"},"homeTeam":{"ID":"57","City":"Cincinnati","Name":"Bengals","Abbreviation":"CIN"},"location":"Paul Brown Stadium"},{"id":"46031","date":"20181014","time":"1:00PM","awayTeam":{"ID":"71","City":"Tampa Bay","Name":"Buccaneers","Abbreviation":"TB"},"homeTeam":{"ID":"68","City":"Atlanta","Name":"Falcons","Abbreviation":"ATL"},"location":"Georgia Dome"},{"id":"46032","date":"20181014","time":"4:05PM","awayTeam":{"ID":"77","City":"Los Angeles","Name":"Rams","Abbreviation":"LA"},"homeTeam":{"ID":"72","City":"Denver","Name":"Broncos","Abbreviation":"DEN"},"location":"Sports Authority Field at Mile High"},{"id":"46033","date":"20181014","time":"4:25PM","awayTeam":{"ID":"56","City":"Baltimore","Name":"Ravens","Abbreviation":"BAL"},"homeTeam":{"ID":"67","City":"Tennessee","Name":"Titans","Abbreviation":"TEN"},"location":"Nissan Stadium"},{"id":"46034","date":"20181014","time":"4:25PM","awayTeam":{"ID":"66","City":"Jacksonville","Name":"Jaguars","Abbreviation":"JAX"},"homeTeam":{"ID":"52","City":"Dallas","Name":"Cowboys","Abbreviation":"DAL"},"location":"AT&T Stadium"},{"id":"46035","date":"20181014","time":"8:20PM","awayTeam":{"ID":"73","City":"Kansas City","Name":"Chiefs","Abbreviation":"KC"},"homeTeam":{"ID":"50","City":"New England","Name":"Patriots","Abbreviation":"NE"},"location":"Gillette Stadium"},{"id":"46036","date":"20181015","time":"8:15PM","awayTeam":{"ID":"78","City":"San Francisco","Name":"49ers","Abbreviation":"SF"},"homeTeam":{"ID":"62","City":"Green Bay","Name":"Packers","Abbreviation":"GB"},"location":"Lambeau Field"},{"id":"46037","date":"20181018","time":"8:20PM","awayTeam":{"ID":"72","City":"Denver","Name":"Broncos","Abbreviation":"DEN"},"homeTeam":{"ID":"76","City":"Arizona","Name":"Cardinals","Abbreviation":"ARI"},"location":"University of Phoenix Stadium"},{"id":"46038","date":"20181021","time":"9:30AM","awayTeam":{"ID":"67","City":"Tennessee","Name":"Titans","Abbreviation":"TEN"},"homeTeam":{"ID":"75","City":"Los Angeles","Name":"Chargers","Abbreviation":"LAC"},"location":"StubHub Center"},{"id":"46039","date":"20181021","time":"1:00PM","awayTeam":{"ID":"48","City":"Buffalo","Name":"Bills","Abbreviation":"BUF"},"homeTeam":{"ID":"65","City":"Indianapolis","Name":"Colts","Abbreviation":"IND"},"location":"Lucas Oil Stadium"},{"id":"46040","date":"20181021","time":"1:00PM","awayTeam":{"ID":"69","City":"Carolina","Name":"Panthers","Abbreviation":"CAR"},"homeTeam":{"ID":"54","City":"Philadelphia","Name":"Eagles","Abbreviation":"PHI"},"location":"Lincoln Financial Field"},{"id":"46042","date":"20181021","time":"1:00PM","awayTeam":{"ID":"58","City":"Cleveland","Name":"Browns","Abbreviation":"CLE"},"homeTeam":{"ID":"71","City":"Tampa Bay","Name":"Buccaneers","Abbreviation":"TB"},"location":"Raymond James Stadium"},{"id":"46043","date":"20181021","time":"1:00PM","awayTeam":{"ID":"61","City":"Detroit","Name":"Lions","Abbreviation":"DET"},"homeTeam":{"ID":"49","City":"Miami","Name":"Dolphins","Abbreviation":"MIA"},"location":"Hard Rock Stadium"},{"id":"46044","date":"20181021","time":"1:00PM","awayTeam":{"ID":"64","City":"Houston","Name":"Texans","Abbreviation":"HOU"},"homeTeam":{"ID":"66","City":"Jacksonville","Name":"Jaguars","Abbreviation":"JAX"},"location":"EverBank Field"},{"id":"46045","date":"20181021","time":"1:00PM","awayTeam":{"ID":"63","City":"Minnesota","Name":"Vikings","Abbreviation":"MIN"},"homeTeam":{"ID":"51","City":"New York","Name":"Jets","Abbreviation":"NYJ"},"location":"MetLife Stadium"},{"id":"46046","date":"20181021","time":"1:00PM","awayTeam":{"ID":"50","City":"New England","Name":"Patriots","Abbreviation":"NE"},"homeTeam":{"ID":"60","City":"Chicago","Name":"Bears","Abbreviation":"CHI"},"location":"Soldier Field"},{"id":"46047","date":"20181021","time":"4:05PM","awayTeam":{"ID":"70","City":"New Orleans","Name":"Saints","Abbreviation":"NO"},"homeTeam":{"ID":"56","City":"Baltimore","Name":"Ravens","Abbreviation":"BAL"},"location":"M&T Bank Stadium"},{"id":"46048","date":"20181021","time":"4:25PM","awayTeam":{"ID":"52","City":"Dallas","Name":"Cowboys","Abbreviation":"DAL"},"homeTeam":{"ID":"55","City":"Washington","Name":"Redskins","Abbreviation":"WAS"},"location":"FedEx Field"},{"id":"46049","date":"20181021","time":"4:25PM","awayTeam":{"ID":"77","City":"Los Angeles","Name":"Rams","Abbreviation":"LA"},"homeTeam":{"ID":"78","City":"San Francisco","Name":"49ers","Abbreviation":"SF"},"location":"Levi's Stadium"},{"id":"46041","date":"20181021","time":"8:20PM","awayTeam":{"ID":"57","City":"Cincinnati","Name":"Bengals","Abbreviation":"CIN"},"homeTeam":{"ID":"73","City":"Kansas City","Name":"Chiefs","Abbreviation":"KC"},"location":"Arrowhead Stadium"},{"id":"46050","date":"20181022","time":"8:15PM","awayTeam":{"ID":"53","City":"New York","Name":"Giants","Abbreviation":"NYG"},"homeTeam":{"ID":"68","City":"Atlanta","Name":"Falcons","Abbreviation":"ATL"},"location":"Georgia Dome"},{"id":"46051","date":"20181025","time":"8:20PM","awayTeam":{"ID":"49","City":"Miami","Name":"Dolphins","Abbreviation":"MIA"},"homeTeam":{"ID":"64","City":"Houston","Name":"Texans","Abbreviation":"HOU"},"location":"NRG Stadium"},{"id":"46052","date":"20181028","time":"9:30AM","awayTeam":{"ID":"54","City":"Philadelphia","Name":"Eagles","Abbreviation":"PHI"},"homeTeam":{"ID":"66","City":"Jacksonville","Name":"Jaguars","Abbreviation":"JAX"},"location":"EverBank Field"},{"id":"46053","date":"20181028","time":"1:00PM","awayTeam":{"ID":"56","City":"Baltimore","Name":"Ravens","Abbreviation":"BAL"},"homeTeam":{"ID":"69","City":"Carolina","Name":"Panthers","Abbreviation":"CAR"},"location":"Bank of America Stadium"},{"id":"46054","date":"20181028","time":"1:00PM","awayTeam":{"ID":"58","City":"Cleveland","Name":"Browns","Abbreviation":"CLE"},"homeTeam":{"ID":"59","City":"Pittsburgh","Name":"Steelers","Abbreviation":"PIT"},"location":"Heinz Field"},{"id":"46055","date":"20181028","time":"1:00PM","awayTeam":{"ID":"72","City":"Denver","Name":"Broncos","Abbreviation":"DEN"},"homeTeam":{"ID":"73","City":"Kansas City","Name":"Chiefs","Abbreviation":"KC"},"location":"Arrowhead Stadium"},{"id":"46056","date":"20181028","time":"1:00PM","awayTeam":{"ID":"51","City":"New York","Name":"Jets","Abbreviation":"NYJ"},"homeTeam":{"ID":"60","City":"Chicago","Name":"Bears","Abbreviation":"CHI"},"location":"Soldier Field"},{"id":"46057","date":"20181028","time":"1:00PM","awayTeam":{"ID":"79","City":"Seattle","Name":"Seahawks","Abbreviation":"SEA"},"homeTeam":{"ID":"61","City":"Detroit","Name":"Lions","Abbreviation":"DET"},"location":"Ford Field"},{"id":"46058","date":"20181028","time":"1:00PM","awayTeam":{"ID":"71","City":"Tampa Bay","Name":"Buccaneers","Abbreviation":"TB"},"homeTeam":{"ID":"57","City":"Cincinnati","Name":"Bengals","Abbreviation":"CIN"},"location":"Paul Brown Stadium"},{"id":"46059","date":"20181028","time":"1:00PM","awayTeam":{"ID":"55","City":"Washington","Name":"Redskins","Abbreviation":"WAS"},"homeTeam":{"ID":"53","City":"New York","Name":"Giants","Abbreviation":"NYG"},"location":"MetLife Stadium"},{"id":"46060","date":"20181028","time":"4:05PM","awayTeam":{"ID":"65","City":"Indianapolis","Name":"Colts","Abbreviation":"IND"},"homeTeam":{"ID":"74","City":"Oakland","Name":"Raiders","Abbreviation":"OAK"},"location":"OaklandAlameda County Coliseum"},{"id":"46061","date":"20181028","time":"4:25PM","awayTeam":{"ID":"62","City":"Green Bay","Name":"Packers","Abbreviation":"GB"},"homeTeam":{"ID":"77","City":"Los Angeles","Name":"Rams","Abbreviation":"LA"},"location":"Los Angeles Memorial Coliseum"},{"id":"46062","date":"20181028","time":"4:25PM","awayTeam":{"ID":"78","City":"San Francisco","Name":"49ers","Abbreviation":"SF"},"homeTeam":{"ID":"76","City":"Arizona","Name":"Cardinals","Abbreviation":"ARI"},"location":"University of Phoenix Stadium"},{"id":"46063","date":"20181028","time":"8:20PM","awayTeam":{"ID":"70","City":"New Orleans","Name":"Saints","Abbreviation":"NO"},"homeTeam":{"ID":"63","City":"Minnesota","Name":"Vikings","Abbreviation":"MIN"},"location":"US Bank Stadium"},{"id":"46064","date":"20181029","time":"8:15PM","awayTeam":{"ID":"50","City":"New England","Name":"Patriots","Abbreviation":"NE"},"homeTeam":{"ID":"48","City":"Buffalo","Name":"Bills","Abbreviation":"BUF"},"location":"New Era Field"},{"id":"46065","date":"20181101","time":"8:20PM","awayTeam":{"ID":"74","City":"Oakland","Name":"Raiders","Abbreviation":"OAK"},"homeTeam":{"ID":"78","City":"San Francisco","Name":"49ers","Abbreviation":"SF"},"location":"Levi's Stadium"},{"id":"46066","date":"20181104","time":"1:00PM","awayTeam":{"ID":"60","City":"Chicago","Name":"Bears","Abbreviation":"CHI"},"homeTeam":{"ID":"48","City":"Buffalo","Name":"Bills","Abbreviation":"BUF"},"location":"New Era Field"},{"id":"46067","date":"20181104","time":"1:00PM","awayTeam":{"ID":"59","City":"Pittsburgh","Name":"Steelers","Abbreviation":"PIT"},"homeTeam":{"ID":"56","City":"Baltimore","Name":"Ravens","Abbreviation":"BAL"},"location":"M&T Bank Stadium"},{"id":"46068","date":"20181104","time":"1:00PM","awayTeam":{"ID":"68","City":"Atlanta","Name":"Falcons","Abbreviation":"ATL"},"homeTeam":{"ID":"55","City":"Washington","Name":"Redskins","Abbreviation":"WAS"},"location":"FedEx Field"},{"id":"46069","date":"20181104","time":"1:00PM","awayTeam":{"ID":"61","City":"Detroit","Name":"Lions","Abbreviation":"DET"},"homeTeam":{"ID":"63","City":"Minnesota","Name":"Vikings","Abbreviation":"MIN"},"location":"US Bank Stadium"},{"id":"46070","date":"20181104","time":"1:00PM","awayTeam":{"ID":"73","City":"Kansas City","Name":"Chiefs","Abbreviation":"KC"},"homeTeam":{"ID":"58","City":"Cleveland","Name":"Browns","Abbreviation":"CLE"},"location":"FirstEnergy Stadium"},{"id":"46071","date":"20181104","time":"1:00PM","awayTeam":{"ID":"51","City":"New York","Name":"Jets","Abbreviation":"NYJ"},"homeTeam":{"ID":"49","City":"Miami","Name":"Dolphins","Abbreviation":"MIA"},"location":"Hard Rock Stadium"},{"id":"46072","date":"20181104","time":"1:00PM","awayTeam":{"ID":"71","City":"Tampa Bay","Name":"Buccaneers","Abbreviation":"TB"},"homeTeam":{"ID":"69","City":"Carolina","Name":"Panthers","Abbreviation":"CAR"},"location":"Bank of America Stadium"},{"id":"46073","date":"20181104","time":"4:05PM","awayTeam":{"ID":"64","City":"Houston","Name":"Texans","Abbreviation":"HOU"},"homeTeam":{"ID":"72","City":"Denver","Name":"Broncos","Abbreviation":"DEN"},"location":"Sports Authority Field at Mile High"},{"id":"46074","date":"20181104","time":"4:05PM","awayTeam":{"ID":"75","City":"Los Angeles","Name":"Chargers","Abbreviation":"LAC"},"homeTeam":{"ID":"79","City":"Seattle","Name":"Seahawks","Abbreviation":"SEA"},"location":"CenturyLink Field"},{"id":"46075","date":"20181104","time":"4:25PM","awayTeam":{"ID":"77","City":"Los Angeles","Name":"Rams","Abbreviation":"LA"},"homeTeam":{"ID":"70","City":"New Orleans","Name":"Saints","Abbreviation":"NO"},"location":"MercedesBenz Stadium"},{"id":"46076","date":"20181104","time":"8:20PM","awayTeam":{"ID":"62","City":"Green Bay","Name":"Packers","Abbreviation":"GB"},"homeTeam":{"ID":"50","City":"New England","Name":"Patriots","Abbreviation":"NE"},"location":"Gillette Stadium"},{"id":"46077","date":"20181105","time":"8:15PM","awayTeam":{"ID":"67","City":"Tennessee","Name":"Titans","Abbreviation":"TEN"},"homeTeam":{"ID":"52","City":"Dallas","Name":"Cowboys","Abbreviation":"DAL"},"location":"AT&T Stadium"},{"id":"46078","date":"20181108","time":"8:20PM","awayTeam":{"ID":"69","City":"Carolina","Name":"Panthers","Abbreviation":"CAR"},"homeTeam":{"ID":"59","City":"Pittsburgh","Name":"Steelers","Abbreviation":"PIT"},"location":"Heinz Field"},{"id":"46079","date":"20181111","time":"1:00PM","awayTeam":{"ID":"76","City":"Arizona","Name":"Cardinals","Abbreviation":"ARI"},"homeTeam":{"ID":"73","City":"Kansas City","Name":"Chiefs","Abbreviation":"KC"},"location":"Arrowhead Stadium"},{"id":"46080","date":"20181111","time":"1:00PM","awayTeam":{"ID":"48","City":"Buffalo","Name":"Bills","Abbreviation":"BUF"},"homeTeam":{"ID":"51","City":"New York","Name":"Jets","Abbreviation":"NYJ"},"location":"MetLife Stadium"},{"id":"46081","date":"20181111","time":"1:00PM","awayTeam":{"ID":"66","City":"Jacksonville","Name":"Jaguars","Abbreviation":"JAX"},"homeTeam":{"ID":"65","City":"Indianapolis","Name":"Colts","Abbreviation":"IND"},"location":"Lucas Oil Stadium"},{"id":"46082","date":"20181111","time":"1:00PM","awayTeam":{"ID":"50","City":"New England","Name":"Patriots","Abbreviation":"NE"},"homeTeam":{"ID":"67","City":"Tennessee","Name":"Titans","Abbreviation":"TEN"},"location":"Nissan Stadium"},{"id":"46083","date":"20181111","time":"1:00PM","awayTeam":{"ID":"55","City":"Washington","Name":"Redskins","Abbreviation":"WAS"},"homeTeam":{"ID":"71","City":"Tampa Bay","Name":"Buccaneers","Abbreviation":"TB"},"location":"Raymond James Stadium"},{"id":"46084","date":"20181111","time":"1:00PM","awayTeam":{"ID":"68","City":"Atlanta","Name":"Falcons","Abbreviation":"ATL"},"homeTeam":{"ID":"58","City":"Cleveland","Name":"Browns","Abbreviation":"CLE"},"location":"FirstEnergy Stadium"},{"id":"46085","date":"20181111","time":"1:00PM","awayTeam":{"ID":"61","City":"Detroit","Name":"Lions","Abbreviation":"DET"},"homeTeam":{"ID":"60","City":"Chicago","Name":"Bears","Abbreviation":"CHI"},"location":"Soldier Field"},{"id":"46087","date":"20181111","time":"1:00PM","awayTeam":{"ID":"70","City":"New Orleans","Name":"Saints","Abbreviation":"NO"},"homeTeam":{"ID":"57","City":"Cincinnati","Name":"Bengals","Abbreviation":"CIN"},"location":"Paul Brown Stadium"},{"id":"46088","date":"20181111","time":"4:05PM","awayTeam":{"ID":"75","City":"Los Angeles","Name":"Chargers","Abbreviation":"LAC"},"homeTeam":{"ID":"74","City":"Oakland","Name":"Raiders","Abbreviation":"OAK"},"location":"OaklandAlameda County Coliseum"},{"id":"46086","date":"20181111","time":"4:25PM","awayTeam":{"ID":"49","City":"Miami","Name":"Dolphins","Abbreviation":"MIA"},"homeTeam":{"ID":"62","City":"Green Bay","Name":"Packers","Abbreviation":"GB"},"location":"Lambeau Field"},{"id":"46089","date":"20181111","time":"4:25PM","awayTeam":{"ID":"79","City":"Seattle","Name":"Seahawks","Abbreviation":"SEA"},"homeTeam":{"ID":"77","City":"Los Angeles","Name":"Rams","Abbreviation":"LA"},"location":"Los Angeles Memorial Coliseum"},{"id":"46090","date":"20181111","time":"8:20PM","awayTeam":{"ID":"52","City":"Dallas","Name":"Cowboys","Abbreviation":"DAL"},"homeTeam":{"ID":"54","City":"Philadelphia","Name":"Eagles","Abbreviation":"PHI"},"location":"Lincoln Financial Field"},{"id":"46091","date":"20181112","time":"8:15PM","awayTeam":{"ID":"53","City":"New York","Name":"Giants","Abbreviation":"NYG"},"homeTeam":{"ID":"78","City":"San Francisco","Name":"49ers","Abbreviation":"SF"},"location":"Levi's Stadium"},{"id":"46092","date":"20181115","time":"8:20PM","awayTeam":{"ID":"62","City":"Green Bay","Name":"Packers","Abbreviation":"GB"},"homeTeam":{"ID":"79","City":"Seattle","Name":"Seahawks","Abbreviation":"SEA"},"location":"CenturyLink Field"},{"id":"46093","date":"20181118","time":"1:00PM","awayTeam":{"ID":"69","City":"Carolina","Name":"Panthers","Abbreviation":"CAR"},"homeTeam":{"ID":"61","City":"Detroit","Name":"Lions","Abbreviation":"DET"},"location":"Ford Field"},{"id":"46094","date":"20181118","time":"1:00PM","awayTeam":{"ID":"57","City":"Cincinnati","Name":"Bengals","Abbreviation":"CIN"},"homeTeam":{"ID":"56","City":"Baltimore","Name":"Ravens","Abbreviation":"BAL"},"location":"M&T Bank Stadium"},{"id":"46095","date":"20181118","time":"1:00PM","awayTeam":{"ID":"52","City":"Dallas","Name":"Cowboys","Abbreviation":"DAL"},"homeTeam":{"ID":"68","City":"Atlanta","Name":"Falcons","Abbreviation":"ATL"},"location":"Georgia Dome"},{"id":"46096","date":"20181118","time":"1:00PM","awayTeam":{"ID":"64","City":"Houston","Name":"Texans","Abbreviation":"HOU"},"homeTeam":{"ID":"55","City":"Washington","Name":"Redskins","Abbreviation":"WAS"},"location":"FedEx Field"},{"id":"46099","date":"20181118","time":"1:00PM","awayTeam":{"ID":"71","City":"Tampa Bay","Name":"Buccaneers","Abbreviation":"TB"},"homeTeam":{"ID":"53","City":"New York","Name":"Giants","Abbreviation":"NYG"},"location":"MetLife Stadium"},{"id":"46100","date":"20181118","time":"1:00PM","awayTeam":{"ID":"67","City":"Tennessee","Name":"Titans","Abbreviation":"TEN"},"homeTeam":{"ID":"65","City":"Indianapolis","Name":"Colts","Abbreviation":"IND"},"location":"Lucas Oil Stadium"},{"id":"46103","date":"20181118","time":"1:00PM","awayTeam":{"ID":"59","City":"Pittsburgh","Name":"Steelers","Abbreviation":"PIT"},"homeTeam":{"ID":"66","City":"Jacksonville","Name":"Jaguars","Abbreviation":"JAX"},"location":"EverBank Field"},{"id":"46101","date":"20181118","time":"4:05PM","awayTeam":{"ID":"72","City":"Denver","Name":"Broncos","Abbreviation":"DEN"},"homeTeam":{"ID":"75","City":"Los Angeles","Name":"Chargers","Abbreviation":"LAC"},"location":"StubHub Center"},{"id":"46102","date":"20181118","time":"4:05PM","awayTeam":{"ID":"74","City":"Oakland","Name":"Raiders","Abbreviation":"OAK"},"homeTeam":{"ID":"76","City":"Arizona","Name":"Cardinals","Abbreviation":"ARI"},"location":"University of Phoenix Stadium"},{"id":"46098","date":"20181118","time":"4:25PM","awayTeam":{"ID":"54","City":"Philadelphia","Name":"Eagles","Abbreviation":"PHI"},"homeTeam":{"ID":"70","City":"New Orleans","Name":"Saints","Abbreviation":"NO"},"location":"MercedesBenz Stadium"},{"id":"46097","date":"20181118","time":"8:20PM","awayTeam":{"ID":"63","City":"Minnesota","Name":"Vikings","Abbreviation":"MIN"},"homeTeam":{"ID":"60","City":"Chicago","Name":"Bears","Abbreviation":"CHI"},"location":"Soldier Field"},{"id":"46104","date":"20181119","time":"8:15PM","awayTeam":{"ID":"73","City":"Kansas City","Name":"Chiefs","Abbreviation":"KC"},"homeTeam":{"ID":"77","City":"Los Angeles","Name":"Rams","Abbreviation":"LA"},"location":"Los Angeles Memorial Coliseum"},{"id":"46105","date":"20181122","time":"12:30PM","awayTeam":{"ID":"60","City":"Chicago","Name":"Bears","Abbreviation":"CHI"},"homeTeam":{"ID":"61","City":"Detroit","Name":"Lions","Abbreviation":"DET"},"location":"Ford Field"},{"id":"46106","date":"20181122","time":"4:30PM","awayTeam":{"ID":"55","City":"Washington","Name":"Redskins","Abbreviation":"WAS"},"homeTeam":{"ID":"52","City":"Dallas","Name":"Cowboys","Abbreviation":"DAL"},"location":"AT&T Stadium"},{"id":"46107","date":"20181122","time":"8:20PM","awayTeam":{"ID":"68","City":"Atlanta","Name":"Falcons","Abbreviation":"ATL"},"homeTeam":{"ID":"70","City":"New Orleans","Name":"Saints","Abbreviation":"NO"},"location":"MercedesBenz Stadium"},{"id":"46108","date":"20181125","time":"1:00PM","awayTeam":{"ID":"58","City":"Cleveland","Name":"Browns","Abbreviation":"CLE"},"homeTeam":{"ID":"57","City":"Cincinnati","Name":"Bengals","Abbreviation":"CIN"},"location":"Paul Brown Stadium"},{"id":"46109","date":"20181125","time":"1:00PM","awayTeam":{"ID":"66","City":"Jacksonville","Name":"Jaguars","Abbreviation":"JAX"},"homeTeam":{"ID":"48","City":"Buffalo","Name":"Bills","Abbreviation":"BUF"},"location":"New Era Field"},{"id":"46111","date":"20181125","time":"1:00PM","awayTeam":{"ID":"50","City":"New England","Name":"Patriots","Abbreviation":"NE"},"homeTeam":{"ID":"51","City":"New York","Name":"Jets","Abbreviation":"NYJ"},"location":"MetLife Stadium"},{"id":"46112","date":"20181125","time":"1:00PM","awayTeam":{"ID":"53","City":"New York","Name":"Giants","Abbreviation":"NYG"},"homeTeam":{"ID":"54","City":"Philadelphia","Name":"Eagles","Abbreviation":"PHI"},"location":"Lincoln Financial Field"},{"id":"46113","date":"20181125","time":"1:00PM","awayTeam":{"ID":"74","City":"Oakland","Name":"Raiders","Abbreviation":"OAK"},"homeTeam":{"ID":"56","City":"Baltimore","Name":"Ravens","Abbreviation":"BAL"},"location":"M&T Bank Stadium"},{"id":"46114","date":"20181125","time":"1:00PM","awayTeam":{"ID":"79","City":"Seattle","Name":"Seahawks","Abbreviation":"SEA"},"homeTeam":{"ID":"69","City":"Carolina","Name":"Panthers","Abbreviation":"CAR"},"location":"Bank of America Stadium"},{"id":"46115","date":"20181125","time":"1:00PM","awayTeam":{"ID":"78","City":"San Francisco","Name":"49ers","Abbreviation":"SF"},"homeTeam":{"ID":"71","City":"Tampa Bay","Name":"Buccaneers","Abbreviation":"TB"},"location":"Raymond James Stadium"},{"id":"46116","date":"20181125","time":"4:05PM","awayTeam":{"ID":"76","City":"Arizona","Name":"Cardinals","Abbreviation":"ARI"},"homeTeam":{"ID":"75","City":"Los Angeles","Name":"Chargers","Abbreviation":"LAC"},"location":"StubHub Center"},{"id":"46110","date":"20181125","time":"4:25PM","awayTeam":{"ID":"49","City":"Miami","Name":"Dolphins","Abbreviation":"MIA"},"homeTeam":{"ID":"65","City":"Indianapolis","Name":"Colts","Abbreviation":"IND"},"location":"Lucas Oil Stadium"},{"id":"46117","date":"20181125","time":"4:25PM","awayTeam":{"ID":"59","City":"Pittsburgh","Name":"Steelers","Abbreviation":"PIT"},"homeTeam":{"ID":"72","City":"Denver","Name":"Broncos","Abbreviation":"DEN"},"location":"Sports Authority Field at Mile High"},{"id":"46118","date":"20181125","time":"8:20PM","awayTeam":{"ID":"62","City":"Green Bay","Name":"Packers","Abbreviation":"GB"},"homeTeam":{"ID":"63","City":"Minnesota","Name":"Vikings","Abbreviation":"MIN"},"location":"US Bank Stadium"},{"id":"46119","date":"20181126","time":"8:15PM","awayTeam":{"ID":"67","City":"Tennessee","Name":"Titans","Abbreviation":"TEN"},"homeTeam":{"ID":"64","City":"Houston","Name":"Texans","Abbreviation":"HOU"},"location":"NRG Stadium"},{"id":"46120","date":"20181129","time":"8:20PM","awayTeam":{"ID":"70","City":"New Orleans","Name":"Saints","Abbreviation":"NO"},"homeTeam":{"ID":"52","City":"Dallas","Name":"Cowboys","Abbreviation":"DAL"},"location":"AT&T Stadium"},{"id":"46121","date":"20181202","time":"1:00PM","awayTeam":{"ID":"76","City":"Arizona","Name":"Cardinals","Abbreviation":"ARI"},"homeTeam":{"ID":"62","City":"Green Bay","Name":"Packers","Abbreviation":"GB"},"location":"Lambeau Field"},{"id":"46122","date":"20181202","time":"1:00PM","awayTeam":{"ID":"56","City":"Baltimore","Name":"Ravens","Abbreviation":"BAL"},"homeTeam":{"ID":"68","City":"Atlanta","Name":"Falcons","Abbreviation":"ATL"},"location":"Georgia Dome"},{"id":"46123","date":"20181202","time":"1:00PM","awayTeam":{"ID":"48","City":"Buffalo","Name":"Bills","Abbreviation":"BUF"},"homeTeam":{"ID":"49","City":"Miami","Name":"Dolphins","Abbreviation":"MIA"},"location":"Hard Rock Stadium"},{"id":"46124","date":"20181202","time":"1:00PM","awayTeam":{"ID":"69","City":"Carolina","Name":"Panthers","Abbreviation":"CAR"},"homeTeam":{"ID":"71","City":"Tampa Bay","Name":"Buccaneers","Abbreviation":"TB"},"location":"Raymond James Stadium"},{"id":"46125","date":"20181202","time":"1:00PM","awayTeam":{"ID":"60","City":"Chicago","Name":"Bears","Abbreviation":"CHI"},"homeTeam":{"ID":"53","City":"New York","Name":"Giants","Abbreviation":"NYG"},"location":"MetLife Stadium"},{"id":"46126","date":"20181202","time":"1:00PM","awayTeam":{"ID":"58","City":"Cleveland","Name":"Browns","Abbreviation":"CLE"},"homeTeam":{"ID":"64","City":"Houston","Name":"Texans","Abbreviation":"HOU"},"location":"NRG Stadium"},{"id":"46127","date":"20181202","time":"1:00PM","awayTeam":{"ID":"72","City":"Denver","Name":"Broncos","Abbreviation":"DEN"},"homeTeam":{"ID":"57","City":"Cincinnati","Name":"Bengals","Abbreviation":"CIN"},"location":"Paul Brown Stadium"},{"id":"46128","date":"20181202","time":"1:00PM","awayTeam":{"ID":"65","City":"Indianapolis","Name":"Colts","Abbreviation":"IND"},"homeTeam":{"ID":"66","City":"Jacksonville","Name":"Jaguars","Abbreviation":"JAX"},"location":"EverBank Field"},{"id":"46130","date":"20181202","time":"1:00PM","awayTeam":{"ID":"77","City":"Los Angeles","Name":"Rams","Abbreviation":"LA"},"homeTeam":{"ID":"61","City":"Detroit","Name":"Lions","Abbreviation":"DET"},"location":"Ford Field"},{"id":"46131","date":"20181202","time":"4:05PM","awayTeam":{"ID":"73","City":"Kansas City","Name":"Chiefs","Abbreviation":"KC"},"homeTeam":{"ID":"74","City":"Oakland","Name":"Raiders","Abbreviation":"OAK"},"location":"OaklandAlameda County Coliseum"},{"id":"46132","date":"20181202","time":"4:05PM","awayTeam":{"ID":"51","City":"New York","Name":"Jets","Abbreviation":"NYJ"},"homeTeam":{"ID":"67","City":"Tennessee","Name":"Titans","Abbreviation":"TEN"},"location":"Nissan Stadium"},{"id":"46133","date":"20181202","time":"4:25PM","awayTeam":{"ID":"63","City":"Minnesota","Name":"Vikings","Abbreviation":"MIN"},"homeTeam":{"ID":"50","City":"New England","Name":"Patriots","Abbreviation":"NE"},"location":"Gillette Stadium"},{"id":"46134","date":"20181202","time":"4:25PM","awayTeam":{"ID":"78","City":"San Francisco","Name":"49ers","Abbreviation":"SF"},"homeTeam":{"ID":"79","City":"Seattle","Name":"Seahawks","Abbreviation":"SEA"},"location":"CenturyLink Field"},{"id":"46129","date":"20181202","time":"8:20PM","awayTeam":{"ID":"75","City":"Los Angeles","Name":"Chargers","Abbreviation":"LAC"},"homeTeam":{"ID":"59","City":"Pittsburgh","Name":"Steelers","Abbreviation":"PIT"},"location":"Heinz Field"},{"id":"46135","date":"20181203","time":"8:15PM","awayTeam":{"ID":"55","City":"Washington","Name":"Redskins","Abbreviation":"WAS"},"homeTeam":{"ID":"54","City":"Philadelphia","Name":"Eagles","Abbreviation":"PHI"},"location":"Lincoln Financial Field"},{"id":"46136","date":"20181206","time":"8:20PM","awayTeam":{"ID":"66","City":"Jacksonville","Name":"Jaguars","Abbreviation":"JAX"},"homeTeam":{"ID":"67","City":"Tennessee","Name":"Titans","Abbreviation":"TEN"},"location":"Nissan Stadium"},{"id":"46137","date":"20181209","time":"1:00PM","awayTeam":{"ID":"68","City":"Atlanta","Name":"Falcons","Abbreviation":"ATL"},"homeTeam":{"ID":"62","City":"Green Bay","Name":"Packers","Abbreviation":"GB"},"location":"Lambeau Field"},{"id":"46138","date":"20181209","time":"1:00PM","awayTeam":{"ID":"56","City":"Baltimore","Name":"Ravens","Abbreviation":"BAL"},"homeTeam":{"ID":"73","City":"Kansas City","Name":"Chiefs","Abbreviation":"KC"},"location":"Arrowhead Stadium"},{"id":"46139","date":"20181209","time":"1:00PM","awayTeam":{"ID":"69","City":"Carolina","Name":"Panthers","Abbreviation":"CAR"},"homeTeam":{"ID":"58","City":"Cleveland","Name":"Browns","Abbreviation":"CLE"},"location":"FirstEnergy Stadium"},{"id":"46140","date":"20181209","time":"1:00PM","awayTeam":{"ID":"65","City":"Indianapolis","Name":"Colts","Abbreviation":"IND"},"homeTeam":{"ID":"64","City":"Houston","Name":"Texans","Abbreviation":"HOU"},"location":"NRG Stadium"},{"id":"46142","date":"20181209","time":"1:00PM","awayTeam":{"ID":"50","City":"New England","Name":"Patriots","Abbreviation":"NE"},"homeTeam":{"ID":"49","City":"Miami","Name":"Dolphins","Abbreviation":"MIA"},"location":"Hard Rock Stadium"},{"id":"46143","date":"20181209","time":"1:00PM","awayTeam":{"ID":"70","City":"New Orleans","Name":"Saints","Abbreviation":"NO"},"homeTeam":{"ID":"71","City":"Tampa Bay","Name":"Buccaneers","Abbreviation":"TB"},"location":"Raymond James Stadium"},{"id":"46144","date":"20181209","time":"1:00PM","awayTeam":{"ID":"53","City":"New York","Name":"Giants","Abbreviation":"NYG"},"homeTeam":{"ID":"55","City":"Washington","Name":"Redskins","Abbreviation":"WAS"},"location":"FedEx Field"},{"id":"46145","date":"20181209","time":"1:00PM","awayTeam":{"ID":"51","City":"New York","Name":"Jets","Abbreviation":"NYJ"},"homeTeam":{"ID":"48","City":"Buffalo","Name":"Bills","Abbreviation":"BUF"},"location":"New Era Field"},{"id":"46146","date":"20181209","time":"4:05PM","awayTeam":{"ID":"57","City":"Cincinnati","Name":"Bengals","Abbreviation":"CIN"},"homeTeam":{"ID":"75","City":"Los Angeles","Name":"Chargers","Abbreviation":"LAC"},"location":"StubHub Center"},{"id":"46147","date":"20181209","time":"4:05PM","awayTeam":{"ID":"72","City":"Denver","Name":"Broncos","Abbreviation":"DEN"},"homeTeam":{"ID":"78","City":"San Francisco","Name":"49ers","Abbreviation":"SF"},"location":"Levi's Stadium"},{"id":"46148","date":"20181209","time":"4:25PM","awayTeam":{"ID":"61","City":"Detroit","Name":"Lions","Abbreviation":"DET"},"homeTeam":{"ID":"76","City":"Arizona","Name":"Cardinals","Abbreviation":"ARI"},"location":"University of Phoenix Stadium"},{"id":"46149","date":"20181209","time":"4:25PM","awayTeam":{"ID":"54","City":"Philadelphia","Name":"Eagles","Abbreviation":"PHI"},"homeTeam":{"ID":"52","City":"Dallas","Name":"Cowboys","Abbreviation":"DAL"},"location":"AT&T Stadium"},{"id":"46150","date":"20181209","time":"4:25PM","awayTeam":{"ID":"59","City":"Pittsburgh","Name":"Steelers","Abbreviation":"PIT"},"homeTeam":{"ID":"74","City":"Oakland","Name":"Raiders","Abbreviation":"OAK"},"location":"OaklandAlameda County Coliseum"},{"id":"46141","date":"20181209","time":"8:20PM","awayTeam":{"ID":"77","City":"Los Angeles","Name":"Rams","Abbreviation":"LA"},"homeTeam":{"ID":"60","City":"Chicago","Name":"Bears","Abbreviation":"CHI"},"location":"Soldier Field"},{"id":"46151","date":"20181210","time":"8:15PM","awayTeam":{"ID":"63","City":"Minnesota","Name":"Vikings","Abbreviation":"MIN"},"homeTeam":{"ID":"79","City":"Seattle","Name":"Seahawks","Abbreviation":"SEA"},"location":"CenturyLink Field"},{"id":"46152","date":"20181213","time":"8:20PM","awayTeam":{"ID":"75","City":"Los Angeles","Name":"Chargers","Abbreviation":"LAC"},"homeTeam":{"ID":"73","City":"Kansas City","Name":"Chiefs","Abbreviation":"KC"},"location":"Arrowhead Stadium"},{"id":"46154","date":"20181215","time":"4:30PM","awayTeam":{"ID":"64","City":"Houston","Name":"Texans","Abbreviation":"HOU"},"homeTeam":{"ID":"51","City":"New York","Name":"Jets","Abbreviation":"NYJ"},"location":"MetLife Stadium"},{"id":"46153","date":"20181215","time":"8:20PM","awayTeam":{"ID":"58","City":"Cleveland","Name":"Browns","Abbreviation":"CLE"},"homeTeam":{"ID":"72","City":"Denver","Name":"Broncos","Abbreviation":"DEN"},"location":"Sports Authority Field at Mile High"},{"id":"46155","date":"20181216","time":"1:00PM","awayTeam":{"ID":"52","City":"Dallas","Name":"Cowboys","Abbreviation":"DAL"},"homeTeam":{"ID":"65","City":"Indianapolis","Name":"Colts","Abbreviation":"IND"},"location":"Lucas Oil Stadium"},{"id":"46156","date":"20181216","time":"1:00PM","awayTeam":{"ID":"49","City":"Miami","Name":"Dolphins","Abbreviation":"MIA"},"homeTeam":{"ID":"63","City":"Minnesota","Name":"Vikings","Abbreviation":"MIN"},"location":"US Bank Stadium"},{"id":"46157","date":"20181216","time":"1:00PM","awayTeam":{"ID":"74","City":"Oakland","Name":"Raiders","Abbreviation":"OAK"},"homeTeam":{"ID":"57","City":"Cincinnati","Name":"Bengals","Abbreviation":"CIN"},"location":"Paul Brown Stadium"},{"id":"46158","date":"20181216","time":"1:00PM","awayTeam":{"ID":"67","City":"Tennessee","Name":"Titans","Abbreviation":"TEN"},"homeTeam":{"ID":"53","City":"New York","Name":"Giants","Abbreviation":"NYG"},"location":"MetLife Stadium"},{"id":"46159","date":"20181216","time":"1:00PM","awayTeam":{"ID":"55","City":"Washington","Name":"Redskins","Abbreviation":"WAS"},"homeTeam":{"ID":"66","City":"Jacksonville","Name":"Jaguars","Abbreviation":"JAX"},"location":"EverBank Field"},{"id":"46160","date":"20181216","time":"1:00PM","awayTeam":{"ID":"76","City":"Arizona","Name":"Cardinals","Abbreviation":"ARI"},"homeTeam":{"ID":"68","City":"Atlanta","Name":"Falcons","Abbreviation":"ATL"},"location":"Georgia Dome"},{"id":"46161","date":"20181216","time":"1:00PM","awayTeam":{"ID":"61","City":"Detroit","Name":"Lions","Abbreviation":"DET"},"homeTeam":{"ID":"48","City":"Buffalo","Name":"Bills","Abbreviation":"BUF"},"location":"New Era Field"},{"id":"46162","date":"20181216","time":"1:00PM","awayTeam":{"ID":"62","City":"Green Bay","Name":"Packers","Abbreviation":"GB"},"homeTeam":{"ID":"60","City":"Chicago","Name":"Bears","Abbreviation":"CHI"},"location":"Soldier Field"},{"id":"46163","date":"20181216","time":"1:00PM","awayTeam":{"ID":"71","City":"Tampa Bay","Name":"Buccaneers","Abbreviation":"TB"},"homeTeam":{"ID":"56","City":"Baltimore","Name":"Ravens","Abbreviation":"BAL"},"location":"M&T Bank Stadium"},{"id":"46164","date":"20181216","time":"4:05PM","awayTeam":{"ID":"79","City":"Seattle","Name":"Seahawks","Abbreviation":"SEA"},"homeTeam":{"ID":"78","City":"San Francisco","Name":"49ers","Abbreviation":"SF"},"location":"Levi's Stadium"},{"id":"46165","date":"20181216","time":"4:25PM","awayTeam":{"ID":"50","City":"New England","Name":"Patriots","Abbreviation":"NE"},"homeTeam":{"ID":"59","City":"Pittsburgh","Name":"Steelers","Abbreviation":"PIT"},"location":"Heinz Field"},{"id":"46166","date":"20181216","time":"8:20PM","awayTeam":{"ID":"54","City":"Philadelphia","Name":"Eagles","Abbreviation":"PHI"},"homeTeam":{"ID":"77","City":"Los Angeles","Name":"Rams","Abbreviation":"LA"},"location":"Los Angeles Memorial Coliseum"},{"id":"46167","date":"20181217","time":"8:15PM","awayTeam":{"ID":"70","City":"New Orleans","Name":"Saints","Abbreviation":"NO"},"homeTeam":{"ID":"69","City":"Carolina","Name":"Panthers","Abbreviation":"CAR"},"location":"Bank of America Stadium"},{"id":"46177","date":"20181222","time":"4:30PM","awayTeam":{"ID":"55","City":"Washington","Name":"Redskins","Abbreviation":"WAS"},"homeTeam":{"ID":"67","City":"Tennessee","Name":"Titans","Abbreviation":"TEN"},"location":"Nissan Stadium"},{"id":"46178","date":"20181222","time":"8:20PM","awayTeam":{"ID":"56","City":"Baltimore","Name":"Ravens","Abbreviation":"BAL"},"homeTeam":{"ID":"75","City":"Los Angeles","Name":"Chargers","Abbreviation":"LAC"},"location":"StubHub Center"},{"id":"46168","date":"20181223","time":"1:00PM","awayTeam":{"ID":"68","City":"Atlanta","Name":"Falcons","Abbreviation":"ATL"},"homeTeam":{"ID":"69","City":"Carolina","Name":"Panthers","Abbreviation":"CAR"},"location":"Bank of America Stadium"},{"id":"46169","date":"20181223","time":"1:00PM","awayTeam":{"ID":"48","City":"Buffalo","Name":"Bills","Abbreviation":"BUF"},"homeTeam":{"ID":"50","City":"New England","Name":"Patriots","Abbreviation":"NE"},"location":"Gillette Stadium"},{"id":"46170","date":"20181223","time":"1:00PM","awayTeam":{"ID":"57","City":"Cincinnati","Name":"Bengals","Abbreviation":"CIN"},"homeTeam":{"ID":"58","City":"Cleveland","Name":"Browns","Abbreviation":"CLE"},"location":"FirstEnergy Stadium"},{"id":"46171","date":"20181223","time":"1:00PM","awayTeam":{"ID":"62","City":"Green Bay","Name":"Packers","Abbreviation":"GB"},"homeTeam":{"ID":"51","City":"New York","Name":"Jets","Abbreviation":"NYJ"},"location":"MetLife Stadium"},{"id":"46172","date":"20181223","time":"1:00PM","awayTeam":{"ID":"64","City":"Houston","Name":"Texans","Abbreviation":"HOU"},"homeTeam":{"ID":"54","City":"Philadelphia","Name":"Eagles","Abbreviation":"PHI"},"location":"Lincoln Financial Field"},{"id":"46173","date":"20181223","time":"1:00PM","awayTeam":{"ID":"66","City":"Jacksonville","Name":"Jaguars","Abbreviation":"JAX"},"homeTeam":{"ID":"49","City":"Miami","Name":"Dolphins","Abbreviation":"MIA"},"location":"Hard Rock Stadium"},{"id":"46174","date":"20181223","time":"1:00PM","awayTeam":{"ID":"63","City":"Minnesota","Name":"Vikings","Abbreviation":"MIN"},"homeTeam":{"ID":"61","City":"Detroit","Name":"Lions","Abbreviation":"DET"},"location":"Ford Field"},{"id":"46175","date":"20181223","time":"1:00PM","awayTeam":{"ID":"53","City":"New York","Name":"Giants","Abbreviation":"NYG"},"homeTeam":{"ID":"65","City":"Indianapolis","Name":"Colts","Abbreviation":"IND"},"location":"Lucas Oil Stadium"},{"id":"46176","date":"20181223","time":"1:00PM","awayTeam":{"ID":"71","City":"Tampa Bay","Name":"Buccaneers","Abbreviation":"TB"},"homeTeam":{"ID":"52","City":"Dallas","Name":"Cowboys","Abbreviation":"DAL"},"location":"AT&T Stadium"},{"id":"46179","date":"20181223","time":"4:05PM","awayTeam":{"ID":"60","City":"Chicago","Name":"Bears","Abbreviation":"CHI"},"homeTeam":{"ID":"78","City":"San Francisco","Name":"49ers","Abbreviation":"SF"},"location":"Levi's Stadium"},{"id":"46180","date":"20181223","time":"4:05PM","awayTeam":{"ID":"77","City":"Los Angeles","Name":"Rams","Abbreviation":"LA"},"homeTeam":{"ID":"76","City":"Arizona","Name":"Cardinals","Abbreviation":"ARI"},"location":"University of Phoenix Stadium"},{"id":"46181","date":"20181223","time":"4:25PM","awayTeam":{"ID":"59","City":"Pittsburgh","Name":"Steelers","Abbreviation":"PIT"},"homeTeam":{"ID":"70","City":"New Orleans","Name":"Saints","Abbreviation":"NO"},"location":"MercedesBenz Stadium"},{"id":"46182","date":"20181223","time":"8:20PM","awayTeam":{"ID":"73","City":"Kansas City","Name":"Chiefs","Abbreviation":"KC"},"homeTeam":{"ID":"79","City":"Seattle","Name":"Seahawks","Abbreviation":"SEA"},"location":"CenturyLink Field"},{"id":"46183","date":"20181224","time":"8:15PM","awayTeam":{"ID":"72","City":"Denver","Name":"Broncos","Abbreviation":"DEN"},"homeTeam":{"ID":"74","City":"Oakland","Name":"Raiders","Abbreviation":"OAK"},"location":"OaklandAlameda County Coliseum"}]}}